City,Lat,Lng,Max Temp,Humidity,Cloudiness,Wind Speed,Country,Date
jamestown,42.097,-79.2353,21.0,73,90,6.91,US,1612075009
bambous virieux,-20.3428,57.7575,86.0,66,40,10.36,MU,1612075244
vaini,-21.2,-175.2,78.8,94,75,5.75,TO,1612075244
grindavik,63.8424,-22.4338,21.2,93,90,5.75,IS,1612075244
cherskiy,68.75,161.3,-35.3,83,0,0.54,RU,1612075020
hobart,-42.8794,147.3294,70.0,48,75,11.5,AU,1612074988
pokhara,28.2333,83.9833,66.67,26,0,6.91,NP,1612075244
laguna,38.421,-121.4238,50.0,81,75,4.79,US,1612075245
saint george,37.1041,-113.5841,37.99,75,1,2.21,US,1612075245
bose,45.4612,8.0137,39.99,97,96,2.33,IT,1612075246
cap malheureux,-19.9842,57.6142,84.99,68,4,10.0,MU,1612075246
bamnet narong,15.4992,101.6897,87.94,32,8,8.84,TH,1612075246
rikitea,-23.1203,-134.9692,78.93,77,9,10.16,PF,1612075246
cape town,-33.9258,18.4232,69.01,88,90,12.66,ZA,1612075206
ahipara,-35.1667,173.1667,66.31,66,11,3.51,NZ,1612075032
punta arenas,-53.15,-70.9167,48.2,71,0,19.57,CL,1612075224
ames,42.0347,-93.6199,30.2,86,90,16.11,US,1612075247
sangmelima,2.9333,11.9833,72.14,82,69,2.95,CM,1612075248
ushuaia,-54.8,-68.3,46.4,71,0,6.91,AR,1612074973
ilebo,-4.3167,20.5833,72.16,94,100,1.61,CD,1612075248
lavrentiya,65.5833,-171.0,-11.56,85,100,9.78,RU,1612075248
sur,22.5667,59.5289,76.46,40,0,6.78,OM,1612075052
hermanus,-34.4187,19.2345,75.99,70,2,1.01,ZA,1612075248
krapina,46.1608,15.8789,34.0,93,90,12.66,HR,1612075249
mataura,-46.1927,168.8643,62.46,66,100,3.31,NZ,1612075249
makakilo city,21.3469,-158.0858,73.4,68,1,4.61,US,1612075250
matay,28.419,30.7792,60.66,31,0,7.65,EG,1612075250
ishigaki,24.3448,124.1572,71.6,49,20,12.66,JP,1612075250
bredasdorp,-34.5322,20.0403,75.99,70,0,1.01,ZA,1612075250
chokurdakh,70.6333,147.9167,-31.49,85,46,9.08,RU,1612075250
georgetown,5.4112,100.3354,89.6,55,20,9.22,MY,1612075241
coihaique,-45.5752,-72.0662,48.07,84,44,0.31,CL,1612075251
padang,-0.9492,100.3543,81.73,71,100,4.09,ID,1612075252
saint-philippe,-21.3585,55.7679,88.0,62,0,24.16,RE,1612075252
yellowknife,62.456,-114.3525,-13.0,76,20,3.44,CA,1612075042
kenai,60.5544,-151.2583,10.0,85,1,8.52,US,1612075252
qaanaaq,77.484,-69.3632,-3.46,87,100,0.76,GL,1612075253
tuktoyaktuk,69.4541,-133.0374,-32.8,68,40,3.44,CA,1612075254
bethel,41.3712,-73.414,14.0,72,1,4.9,US,1612075254
bereznik,62.8551,42.7072,17.37,97,100,8.46,RU,1612075254
pangnirtung,66.1451,-65.7125,-4.65,80,87,3.0,CA,1612075254
sabla,12.7525,4.7077,64.8,25,1,10.13,NG,1612075254
bathsheba,13.2167,-59.5167,78.8,73,40,21.85,BB,1612075256
mumford,5.2618,-0.759,79.41,88,93,7.87,GH,1612075256
gwadar,25.1216,62.3254,73.08,58,0,9.28,PK,1612075256
marawi,7.9986,124.2928,82.99,78,85,13.0,PH,1612075256
marzuq,14.4,46.4667,72.77,31,0,6.06,YE,1612075257
khasan,42.4308,130.6434,18.72,95,100,8.55,RU,1612075257
puerto ayora,-0.7393,-90.3518,78.01,92,20,7.0,EC,1612075257
taltal,-25.4,-70.4833,64.44,78,27,3.31,CL,1612075258
kapaa,22.0752,-159.319,71.6,83,75,18.41,US,1612075258
nemuro,43.3236,145.575,24.8,50,20,10.36,JP,1612075023
kommunisticheskiy,61.6789,64.4819,3.11,93,100,1.21,RU,1612075258
sorong,-0.8833,131.25,83.08,72,100,10.07,ID,1612075259
sarany,58.5,58.8833,19.11,98,100,6.82,RU,1612075259
upernavik,72.7868,-56.1549,-9.6,86,43,4.03,GL,1612075259
chernyshevskiy,63.0128,112.4714,-25.96,85,100,5.88,RU,1612075259
nyagan,62.1406,65.3936,1.92,93,100,1.36,RU,1612075260
castro,-24.7911,-50.0119,64.36,95,100,4.41,BR,1612075260
victoria,22.2855,114.1577,75.2,38,0,11.5,HK,1612075260
iskateley,67.6803,53.1512,3.27,93,100,11.41,RU,1612075261
busselton,-33.65,115.3333,93.99,28,0,4.0,AU,1612075261
pangody,65.85,74.4859,-14.53,89,100,19.3,RU,1612075261
albany,42.6001,-73.9662,9.0,59,25,3.6,US,1612075261
sao filipe,14.8961,-24.4956,72.95,63,100,10.67,CV,1612075065
isangel,-19.55,169.2667,80.6,83,75,17.13,VU,1612075262
todos santos,23.45,-110.2167,63.0,70,18,3.78,MX,1612075262
lorengau,-2.0226,147.2712,83.14,75,100,11.92,PG,1612075262
agadez,19.75,10.25,57.0,32,0,4.14,NE,1612075262
dikson,73.5069,80.5464,-32.19,79,0,5.46,RU,1612075262
port alfred,-33.5906,26.891,75.0,76,100,3.27,ZA,1612075262
jalu,29.0331,21.5482,61.5,41,0,11.23,LY,1612075057
guerrero negro,27.9769,-114.0611,56.64,70,66,1.28,MX,1612075263
new norfolk,-42.7826,147.0587,70.0,45,32,1.99,AU,1612075263
tasiilaq,65.6145,-37.6368,17.6,53,75,3.44,GL,1612075263
kurilsk,45.2333,147.8833,18.36,94,100,24.27,RU,1612075264
puerto escondido,15.85,-97.0667,75.72,66,0,3.67,MX,1612075264
arraial do cabo,-22.9661,-42.0278,75.67,83,95,25.1,BR,1612075264
qaqortoq,60.7167,-46.0333,39.2,28,75,29.93,GL,1612075264
lebu,-37.6167,-73.65,55.26,90,4,11.86,CL,1612075264
richards bay,-28.783,32.0377,80.19,81,88,4.68,ZA,1612075265
pirajui,-21.9986,-49.4572,69.01,91,100,1.99,BR,1612075265
cabo san lucas,22.8909,-109.9124,63.0,77,4,3.0,MX,1612075019
norman wells,65.282,-126.8329,-22.0,76,75,2.75,CA,1612075266
vanimo,-2.6741,141.3028,83.88,71,51,12.57,PG,1612075266
laramie,41.3114,-105.5911,21.99,68,1,13.8,US,1612075267
nikolskoye,59.7035,30.7861,24.8,86,75,4.47,RU,1612075267
trinitapoli,41.3572,16.0874,57.0,76,0,4.61,IT,1612075268
sola,-13.8833,167.55,87.8,70,75,9.46,VU,1612075268
grand-bourg,15.8835,-61.3148,73.4,88,0,2.3,GP,1612075268
karratha,-20.7377,116.8463,93.79,46,99,12.1,AU,1612075268
bluff,-46.6,168.3333,57.49,77,100,5.68,NZ,1612075269
liberal,37.0431,-100.921,33.8,80,1,12.66,US,1612075270
butaritari,3.0707,172.7902,81.48,79,100,15.97,KI,1612075270
khatanga,71.9667,102.5,-47.83,77,47,2.04,RU,1612075270
kavaratti,10.5669,72.642,81.27,74,2,11.88,IN,1612075271
wagga wagga,-35.1167,147.3667,90.0,26,0,9.22,AU,1612075271
codrington,-38.2667,141.9667,63.61,63,0,13.78,AU,1612075272
iracoubo,5.4802,-53.2011,77.0,86,36,14.18,GF,1612075272
vrangel,42.7297,133.0839,16.63,80,0,6.53,RU,1612075272
leningradskiy,69.3833,178.4167,-26.97,83,0,4.12,RU,1612075273
saldanha,-33.0117,17.9442,67.53,84,86,8.25,ZA,1612075273
belozerskoye,55.8214,65.5842,14.22,96,26,2.73,RU,1612075273
deputatskiy,69.3,139.9,-29.45,87,99,2.19,RU,1612075273
lujan,-34.5703,-59.105,60.01,87,72,8.01,AR,1612075274
atuona,-9.8,-139.0333,79.23,76,80,19.1,PF,1612075274
galesburg,40.9478,-90.3712,34.0,100,90,11.5,US,1612075150
hilo,19.7297,-155.09,71.6,83,75,6.91,US,1612075030
barrow,71.2906,-156.7887,-20.2,69,90,9.22,US,1612075275
bani,18.2833,-70.3333,72.0,99,5,15.19,DO,1612075275
antalaha,-14.9003,50.2788,85.37,65,5,7.02,MG,1612075275
loukhi,66.0764,33.0381,11.34,97,100,3.67,RU,1612075275
katsuura,35.1333,140.3,53.01,35,20,16.11,JP,1612075275
havre-saint-pierre,50.2334,-63.5986,21.2,73,90,8.05,CA,1612075276
buraydah,26.326,43.975,50.0,71,0,10.45,SA,1612075276
ancud,-41.8697,-73.8203,50.0,93,0,3.44,CL,1612075276
marsabit,2.3284,37.9899,69.51,54,59,15.75,KE,1612075276
anadyr,64.75,177.4833,1.4,71,75,20.13,RU,1612075277
yaan,7.3833,8.5667,73.08,80,0,5.17,NG,1612075277
vila franca do campo,37.7167,-25.4333,63.0,94,75,14.97,PT,1612075277
touros,-5.1989,-35.4608,75.2,88,40,2.3,BR,1612075277
mahebourg,-20.4081,57.7,86.0,66,40,10.36,MU,1612075277
russell,32.3502,-85.1999,51.01,71,90,3.44,US,1612075277
sambava,-14.2667,50.1667,84.43,66,15,8.05,MG,1612075277
cayenne,4.9333,-52.3333,78.8,89,75,10.36,GF,1612075279
kroya,-7.6331,109.2461,86.22,68,73,4.45,ID,1612075279
tamale,9.4008,-0.8393,72.19,21,0,4.25,GH,1612075280
margate,51.3813,1.3862,39.0,63,100,4.0,GB,1612075009
avarua,-21.2078,-159.775,77.0,88,40,2.3,CK,1612075282
atarra,25.2833,80.5667,74.53,19,0,5.93,IN,1612075283
buxton,53.2574,-1.9098,32.0,91,100,13.69,GB,1612075283
mugur-aksy,50.35,90.5,16.11,80,0,4.85,RU,1612075283
abu samrah,35.3029,37.1841,55.54,70,0,27.56,SY,1612075283
saskylakh,71.9167,114.0833,-32.17,83,100,8.7,RU,1612075024
lata,40.1629,-8.3327,57.0,96,100,5.01,PT,1612075284
dongsheng,39.8161,109.9776,30.67,69,0,31.92,CN,1612075284
san patricio,28.017,-97.5169,64.0,100,40,5.75,US,1612075284
busembatia,0.7697,33.6131,81.25,40,96,5.41,UG,1612075284
college,64.8569,-147.8028,-4.0,77,90,1.5,US,1612075238
marienburg,54.0359,19.0266,28.4,86,75,13.8,PL,1612075285
fortuna,40.5982,-124.1573,54.0,62,90,28.77,US,1612075285
sinnamary,5.3833,-52.95,77.38,85,72,14.03,GF,1612075285
plettenberg bay,-34.0527,23.3716,73.92,56,0,4.32,ZA,1612075285
goderich,43.7501,-81.7165,15.8,79,100,8.05,CA,1612075285
pacifica,37.6138,-122.4869,53.6,81,90,3.44,US,1612075285
miraflores,19.2167,-98.8083,60.8,48,1,4.61,MX,1612075286
boyolangu,-8.1181,111.8935,85.06,68,86,4.54,ID,1612075286
faya,18.3851,42.4509,62.6,36,0,4.61,SA,1612075286
olga,43.7444,135.2892,13.46,77,0,2.86,RU,1612075286
lensk,60.7253,114.9278,-25.69,80,100,7.65,RU,1612075287
ordynskoye,54.3656,81.8994,2.93,88,100,6.89,RU,1612075287
ponta do sol,32.6667,-17.1,57.0,81,1,5.01,PT,1612075287
caceres,39.522,-6.3748,51.01,86,100,5.01,ES,1612075287
comodoro rivadavia,-45.8667,-67.5,55.4,62,0,3.44,AR,1612075287
coquimbo,-29.9533,-71.3436,64.4,88,0,4.61,CL,1612075097
ajdabiya,30.7554,20.2263,59.54,43,0,10.87,LY,1612075287
namibe,-15.1961,12.1522,72.9,74,100,3.36,AO,1612075088
carnarvon,-24.8667,113.6333,89.6,58,1,17.27,AU,1612075287
port blair,11.6667,92.75,83.35,65,0,11.79,IN,1612075288
ilulissat,69.2167,-51.1,6.8,66,90,11.5,GL,1612075288
xichang,27.8964,102.2634,58.32,46,15,7.47,CN,1612075149
manggar,-2.8833,108.2667,84.83,69,100,12.24,ID,1612075289
hovd,48.0056,91.6419,19.98,71,0,3.71,MN,1612075289
januaria,-15.4833,-44.3667,72.28,64,65,5.35,BR,1612075289
bar harbor,44.3876,-68.2039,7.0,72,1,4.61,US,1612075022
cartagena,10.3997,-75.5144,75.2,83,0,4.61,CO,1612075041
troitskoye,52.9821,84.6757,10.26,93,85,9.46,RU,1612075291
ryotsu,38.0833,138.4333,39.2,56,75,11.5,JP,1612075291
riverton,40.5219,-111.9391,32.0,86,1,4.61,US,1612075291
leh,34.1667,77.5833,14.88,62,53,1.5,IN,1612075291
severo-kurilsk,50.6789,156.125,24.69,95,100,36.84,RU,1612075052
portmore,17.9702,-76.8672,77.0,73,20,6.91,JM,1612075292
hasaki,35.7333,140.8333,54.0,32,20,13.8,JP,1612075292
neuquen,-38.9516,-68.0591,62.6,72,75,5.75,AR,1612075152
khvoynaya,58.9,34.5333,18.41,97,100,5.7,RU,1612075292
buin,-33.7333,-70.75,64.4,88,90,8.05,CL,1612075292
la ronge,55.1001,-105.2842,12.2,79,3,1.14,CA,1612075292
shahreza,32.0339,51.8794,42.66,51,0,1.63,IR,1612075292
beringovskiy,63.05,179.3167,6.31,94,100,30.11,RU,1612075293
ilo,-17.6394,-71.3375,67.39,79,100,6.49,PE,1612075293
vuktyl,63.8567,57.3094,10.18,94,100,11.3,RU,1612075293
cidreira,-30.1811,-50.2056,73.89,88,100,9.04,BR,1612075293
mekhe,15.1097,-16.6218,66.2,39,100,10.18,SN,1612075293
cedar lake,41.3648,-87.4411,30.2,93,90,17.27,US,1612075294
adzope,6.1069,-3.8619,73.85,98,37,3.24,CI,1612075294
safranbolu,41.2508,32.6942,41.61,83,39,2.19,TR,1612075294
kaeo,-35.1,173.7833,68.0,68,2,5.99,NZ,1612075089
puerto del rosario,28.5004,-13.8627,64.4,77,40,8.05,ES,1612075294
fort nelson,58.8053,-122.7002,-16.6,76,40,2.48,CA,1612075052
washington,47.5001,-120.5015,34.0,94,100,3.38,US,1612075285
sorland,67.667,12.6934,30.29,88,100,6.4,NO,1612075295
ormara,25.2088,64.6357,72.55,52,0,10.94,PK,1612075295
sheksna,59.21,38.5107,24.8,86,90,8.95,RU,1612075295
mount isa,-20.7333,139.5,100.4,23,75,5.75,AU,1612075296
mar del plata,-38.0023,-57.5575,60.01,58,75,13.8,AR,1612075151
kaspiysk,42.8816,47.6392,42.8,87,90,8.95,RU,1612075296
thompson,55.7435,-97.8558,14.0,85,90,2.64,CA,1612075031
san miguel,13.4833,-88.1833,71.69,62,99,2.89,SV,1612075296
esperance,-33.8667,121.9,86.0,26,0,16.11,AU,1612075296
pisco,-13.7,-76.2167,69.8,73,0,6.91,PE,1612075297
montefiascone,42.5393,12.0362,50.0,93,75,8.05,IT,1612075297
bom jesus da lapa,-13.255,-43.4181,72.61,62,65,1.59,BR,1612075242
salalah,17.0151,54.0924,75.2,53,20,2.3,OM,1612075297
kita,13.0349,-9.4895,64.38,25,0,5.64,ML,1612075297
marrakesh,31.6315,-8.0083,48.2,93,45,8.05,MA,1612075016
payo,-3.7508,103.6372,85.86,60,100,6.02,ID,1612075298
manta,-0.95,-80.7333,77.0,88,90,4.61,EC,1612075299
hammerfest,70.6634,23.6821,24.8,93,75,10.36,NO,1612075299
avera,33.194,-82.5271,44.6,87,90,6.91,US,1612075299
cesvaine,56.9667,26.3167,23.59,97,100,12.28,LV,1612075300
verkhnyaya inta,65.9811,60.3094,6.62,91,100,7.38,RU,1612075300
faanui,-16.4833,-151.75,82.36,71,100,10.42,PF,1612075300
port hardy,50.6996,-127.4199,44.6,87,90,19.57,CA,1612075300
bengkulu,-3.8004,102.2655,81.01,75,100,9.95,ID,1612075300
oranjemund,-28.55,16.4333,64.98,72,0,10.18,NA,1612075065
knysna,-34.0363,23.0471,69.8,73,0,4.61,ZA,1612075301
luganville,-15.5333,167.1667,81.1,73,16,7.9,VU,1612075301
chapais,49.7834,-74.8492,-5.8,84,90,5.75,CA,1612075301
fairbanks,64.8378,-147.7164,-4.0,77,90,1.54,US,1612075067
klaksvik,62.2266,-6.589,30.2,69,20,11.5,FO,1612075301
ballina,-28.8667,153.5667,82.4,69,40,13.8,AU,1612075301
geraldton,-28.7667,114.6,96.8,30,0,21.85,AU,1612075301
byron bay,-28.65,153.6167,82.4,69,40,13.8,AU,1612075149
biak,-0.9131,122.8766,83.88,65,100,6.42,ID,1612075302
matamoros,25.5333,-103.25,66.0,30,0,2.13,MX,1612075302
hamilton,39.1834,-84.5333,34.0,86,90,4.61,US,1612075032
diffa,13.3154,12.6113,67.53,26,58,12.55,NE,1612075303
saint-pierre,-21.3393,55.4781,88.0,62,0,24.16,RE,1612075303
gat,31.61,34.7642,60.01,54,0,5.01,IL,1612075303
mocuba,-16.8392,36.9856,83.88,77,88,2.57,MZ,1612075303
valu lui traian,44.1667,28.4667,37.4,93,0,3.44,RO,1612075303
kavieng,-2.5744,150.7967,83.39,72,100,10.83,PG,1612075303
clyde river,70.4692,-68.5914,-0.4,78,90,3.44,CA,1612075303
tuatapere,-46.1333,167.6833,59.58,70,100,0.65,NZ,1612075304
luis correia,-2.8792,-41.6669,75.99,89,92,8.55,BR,1612075304
jawhar,2.7809,45.5005,85.91,39,0,14.09,SO,1612075304
bontang,0.1333,117.5,84.27,66,100,8.48,ID,1612075304
havelock,34.8791,-76.9013,39.0,60,90,6.91,US,1612075305
ban nahin,18.2418,104.2122,89.01,37,92,3.8,LA,1612075305
provideniya,64.3833,-173.3,-9.51,87,100,20.0,RU,1612075305
ribeira grande,38.5167,-28.7,63.05,94,86,16.55,PT,1612075305
port lincoln,-34.7333,135.8667,69.55,54,5,8.61,AU,1612075306
mugumu,-1.85,34.7,72.86,57,5,6.42,TZ,1612075306
constitucion,-35.3333,-72.4167,57.88,90,24,6.13,CL,1612075007
cooma,-36.2333,149.1333,73.4,56,26,19.57,AU,1612075306
naze,28.3667,129.4833,62.6,55,20,9.22,JP,1612075306
bristol,41.8334,-71.1662,14.0,66,1,3.44,US,1612075306
hualmay,-11.0964,-77.6139,70.14,78,72,8.93,PE,1612075308
alice springs,-23.7,133.8833,98.6,18,40,9.22,AU,1612075308
pacific grove,36.6177,-121.9166,51.01,87,90,4.61,US,1612075159
izumo,35.3667,132.7667,50.0,43,20,6.91,JP,1612075073
gusau,12.1628,6.6614,64.4,26,7,10.29,NG,1612075308
nuevo laredo,27.4763,-99.5164,64.4,72,1,6.91,MX,1612075309
wuning,29.2589,120.2311,68.22,50,45,5.01,CN,1612075309
shelburne,44.0787,-80.2041,8.01,100,75,2.3,CA,1612075309
noumea,-22.2763,166.4572,81.0,69,75,9.22,NC,1612075309
vostok,46.4856,135.8833,-7.65,86,5,3.67,RU,1612075309
longyearbyen,78.2186,15.6401,-5.8,49,20,20.71,SJ,1612075022
parrita,9.5201,-84.3225,68.0,68,0,16.11,CR,1612075310
biharamulo,-2.6319,31.3089,72.03,76,27,1.34,TZ,1612075310
belaya gora,68.5333,146.4167,-34.29,84,98,4.7,RU,1612075310
airai,-8.9266,125.4092,66.51,97,100,6.93,TL,1612075310
seminole,28.7086,-81.2081,60.8,72,1,3.44,US,1612075310
bantry,51.6833,-9.45,41.0,100,75,14.97,IE,1612075311
steamboat springs,40.485,-106.8317,23.0,100,90,2.46,US,1612075311
decin,50.7822,14.2148,16.0,92,83,2.73,CZ,1612075311
berlevag,70.8578,29.0864,25.66,95,100,19.08,NO,1612075311
kandrian,-6.2167,149.55,84.54,72,67,17.81,PG,1612075311
souillac,-20.5167,57.5167,86.0,66,40,10.36,MU,1612075311
castlemaine,-37.0667,144.2167,84.99,27,0,3.0,AU,1612075312
kirakira,-10.4544,161.9205,78.28,89,100,17.27,SB,1612075312
kaitangata,-46.2817,169.8464,62.01,85,100,4.0,NZ,1612075020
katangli,51.7102,143.2326,0.12,90,100,11.01,RU,1612075312
mnogovershinnyy,53.9353,139.9242,-6.72,89,100,4.81,RU,1612075312
biltine,14.5333,20.9167,74.52,18,0,11.27,TD,1612075312
batagay-alyta,67.8006,130.4114,-33.11,81,89,2.3,RU,1612075313
pevek,69.7008,170.3133,-33.81,84,1,2.15,RU,1612075313
talnakh,69.4865,88.3972,-30.24,71,0,7.52,RU,1612075049
huarmey,-10.0681,-78.1522,70.84,74,99,8.7,PE,1612075313
port elizabeth,-33.918,25.5701,71.6,64,0,8.05,ZA,1612075313
la rioja,42.25,-2.5,32.0,100,100,10.65,ES,1612075313
teya,60.3778,92.6267,-17.7,81,46,0.98,RU,1612075314
kudahuvadhoo,2.6708,72.8944,81.88,77,0,13.13,MV,1612075314
odweyne,9.4092,45.064,75.7,19,0,2.8,SO,1612075314
hithadhoo,-0.6,73.0833,82.29,77,75,15.95,MV,1612075314
atar,20.5169,-13.0499,62.96,28,9,8.68,MR,1612075314
komsomolskiy,40.4272,71.7189,48.2,25,88,2.3,UZ,1612075314
pasighat,28.0667,95.3333,74.64,28,0,4.09,IN,1612075049
tiruchchendur,8.4833,78.1167,84.2,65,40,6.91,IN,1612075316
champerico,14.3,-91.9167,63.0,87,19,3.74,GT,1612075316
qingdao,36.0986,120.3719,53.6,47,100,11.18,CN,1612075316
madimba,-10.4,40.3333,80.49,84,92,11.05,TZ,1612075316
vestmanna,62.1564,-7.1664,30.2,69,20,11.5,FO,1612075316
barabinsk,55.3571,78.357,-0.02,91,95,10.54,RU,1612075317
bilma,18.6853,12.9164,62.1,27,1,4.99,NE,1612075317
nishihara,26.1842,127.7558,68.0,39,40,14.97,JP,1612075317
kaberamaido,1.7389,33.1594,82.06,44,99,5.37,UG,1612075317
idil,37.3411,41.8895,41.0,87,75,20.71,TR,1612075317
nelson bay,-32.7167,152.15,78.01,83,75,19.57,AU,1612075317
mamurras,41.5775,19.6922,44.6,76,75,4.61,AL,1612075318
del rio,29.3627,-100.8968,53.6,58,1,4.61,US,1612075318
bogoslovka,53.2084,44.8013,35.01,92,100,19.8,RU,1612075318
iringa,-7.7667,35.7,69.8,69,100,4.34,TZ,1612075318
dryden,49.7833,-92.7503,23.0,93,90,6.91,CA,1612075318
alizai,33.5383,70.3462,58.86,30,0,3.74,PK,1612075318
san quintin,30.4833,-115.95,55.9,78,0,4.47,MX,1612075318
owando,-0.4819,15.8999,73.94,89,99,3.6,CG,1612075319
adrar,20.5022,-10.0711,61.18,30,57,8.63,MR,1612075032
sungairaya,0.7,108.9,85.14,71,100,12.12,ID,1612075275
teahupoo,-17.8333,-149.2667,80.6,74,75,14.97,PF,1612075319
lancaster,40.2504,-76.2499,26.01,68,1,3.44,US,1612075319
thunder bay,48.4001,-89.3168,28.4,80,90,10.36,CA,1612075320
nouadhibou,20.931,-17.0347,64.4,63,0,18.41,MR,1612075287
sao paulo de olivenca,-3.3783,-68.8725,72.34,99,32,2.35,BR,1612075320
uusikaupunki,60.8004,21.4084,14.0,85,75,3.44,FI,1612075320
polovinnoye,54.7914,65.9864,13.62,96,99,2.35,RU,1612075320
torbay,47.6666,-52.7314,30.0,93,90,16.11,CA,1612075320
banamba,13.55,-7.45,61.66,27,0,9.24,ML,1612075321
kodiak,57.79,-152.4072,28.4,50,1,19.57,US,1612075321
nanortalik,60.1432,-45.2371,27.73,91,100,6.93,GL,1612075321
makinsk,52.6292,70.4169,22.1,92,100,4.63,KZ,1612075321
kutulik,53.3508,102.7839,-20.96,84,82,9.93,RU,1612075321
saint-joseph,-21.3667,55.6167,88.0,62,0,24.16,RE,1612075322
kutum,14.2,24.6667,62.53,27,0,5.53,SD,1612075322
qasigiannguit,68.8193,-51.1922,6.8,66,90,11.5,GL,1612075322
bure,10.7,37.0667,73.31,33,5,4.41,ET,1612075322
bokoro,12.3807,17.0568,71.33,21,98,11.86,TD,1612075322
altagracia de orituco,9.8601,-66.3814,69.96,89,70,4.34,VE,1612075323
salaga,8.5508,-0.5188,74.82,55,6,3.06,GH,1612075323
beloha,-25.1667,45.05,92.98,41,0,5.82,MG,1612075324
ugoofaaru,5.6667,73.0,82.6,67,5,8.25,MV,1612075324
mahanje,-9.9333,35.3333,74.19,78,62,5.95,TZ,1612075324
stornoway,58.2093,-6.3865,33.8,75,70,4.61,GB,1612075325
gizo,-8.103,156.8419,85.03,71,100,22.82,SB,1612075325
sitka,57.0531,-135.33,37.4,70,1,5.75,US,1612075325
luderitz,-26.6481,15.1594,68.16,53,0,17.54,NA,1612075325
vao,-22.6667,167.4833,76.55,79,71,19.75,NC,1612075325
kupang,-10.1667,123.5833,82.4,83,90,13.8,ID,1612075325
golden,39.7555,-105.2211,37.4,32,1,16.11,US,1612075306
khandyga,62.6667,135.6,-48.42,76,70,1.07,RU,1612075326
daru,-9.0763,143.2092,84.02,80,17,8.84,PG,1612075326
ust-maya,60.4167,134.5333,-33.36,82,100,2.3,RU,1612075326
guiong,6.4186,122.0258,86.0,66,40,11.5,PH,1612075326
najran,17.4924,44.1277,62.6,31,0,5.75,SA,1612075326
porto velho,-8.7619,-63.9039,75.2,94,75,3.44,BR,1612075327
koulamoutou,-1.1303,12.4736,74.8,85,100,2.15,GA,1612075327
de-kastri,51.4667,140.7833,-0.96,84,100,6.15,RU,1612075327
camana,-16.6228,-72.7111,68.58,77,100,8.37,PE,1612075327
ler,8.3018,30.1418,83.59,17,99,10.65,SS,1612075327
srirampur,22.9489,88.0189,69.8,49,0,8.05,IN,1612075327
sao miguel do araguaia,-13.275,-50.1628,71.37,90,99,0.58,BR,1612075328
warrnambool,-38.3833,142.4833,69.01,65,0,1.01,AU,1612075328
usinsk,65.9939,57.5281,7.09,94,100,14.09,RU,1612075328
aliganj,27.5,79.1833,69.33,24,0,5.46,IN,1612075328
basar,27.9833,94.6667,71.6,60,0,6.91,IN,1612075328
linxia,35.6003,103.2064,34.41,67,100,7.0,CN,1612075329
kalakamati,-20.5929,27.3121,76.87,66,85,8.25,BW,1612075329
mangrol,21.1167,70.1167,79.52,22,0,1.7,IN,1612075329
zonguldak,41.25,31.8333,41.23,86,96,3.98,TR,1612075329
labuhan,-6.8844,112.2051,84.36,76,91,15.84,ID,1612075329
whitefish,48.4111,-114.3376,27.0,86,1,1.52,US,1612075330
alta floresta,-9.8756,-56.0861,69.82,99,86,2.06,BR,1612075330
umarkot,25.3616,69.7362,80.89,15,0,9.33,PK,1612075330
catabola,-12.15,17.2833,67.51,74,100,4.36,AO,1612075330
celendin,-6.8703,-78.1517,52.41,90,90,2.01,PE,1612075330
okha,53.5739,142.9478,-5.24,86,100,20.24,RU,1612075330
auriflama,-20.6856,-50.5547,72.52,84,40,3.27,BR,1612075331
dakar,14.6937,-17.4441,66.2,88,100,11.5,SN,1612075331
san vicente,-26.6167,-54.1333,67.28,100,75,4.05,AR,1612075331
pakxe,15.1167,105.7833,87.8,35,20,2.3,LA,1612075331
solnechnyy,50.7214,136.6319,-8.75,88,99,4.94,RU,1612075332
flin flon,54.7682,-101.865,1.69,94,40,3.62,CA,1612075332
baherden,38.4362,57.4316,54.16,45,42,3.06,TM,1612075332
severomuysk,56.1481,113.4267,-25.13,86,100,8.3,RU,1612075333
rocha,-34.4833,-54.3333,65.66,91,100,15.03,UY,1612075333
pujili,-0.95,-78.6833,41.0,93,20,1.14,EC,1612075333
shimoda,34.6667,138.95,53.6,43,20,8.05,JP,1612075333
maningrida,-12.0667,134.2667,86.04,72,95,7.78,AU,1612075333
san andres,12.5847,-81.7006,80.6,74,20,16.11,CO,1612075333
sakakah,29.9697,40.2064,48.2,49,0,8.05,SA,1612075334
poltava,49.5937,34.5407,32.99,94,100,17.92,UA,1612075334
ust-omchug,61.15,149.6333,-32.19,79,78,10.56,RU,1612075334
shanghai,31.2222,121.4581,60.01,58,0,6.71,CN,1612075234
othaya,-0.5652,36.9609,62.01,63,7,4.05,KE,1612075334
sibu,2.3,111.8167,86.0,70,40,3.44,MY,1612075334
ormstown,45.1334,-73.9992,-5.01,84,43,2.68,CA,1612075335
kresttsy,58.2452,32.5165,21.76,98,97,3.29,RU,1612075335
lakhimpur,27.95,80.7667,67.28,30,0,4.41,IN,1612075335
lac-megantic,45.5834,-70.8823,-2.0,85,90,4.0,CA,1612075331
guarapari,-20.6667,-40.4975,77.0,83,20,5.75,BR,1612075335
saint-paul,-21.0096,55.2707,77.0,86,8,4.32,RE,1612075335
umm lajj,25.0213,37.2685,70.27,34,0,9.69,SA,1612075085
ovre ardal,61.3167,7.8,10.22,87,97,1.66,NO,1612075336
rundu,-17.9333,19.7667,68.58,90,100,6.11,NA,1612075336
burnie,-41.0667,145.9167,63.57,74,13,10.18,AU,1612075336
lusaka,-15.4067,28.2871,69.8,94,75,3.44,ZM,1612075128
jucurutu,-6.0339,-37.0203,76.93,68,97,4.83,BR,1612075336
port hedland,-20.3167,118.5667,87.8,66,75,26.46,AU,1612075337
kharan,28.5833,65.4167,72.66,20,0,4.99,PK,1612075337
ayorou,14.7308,0.9174,64.18,25,42,10.0,NE,1612075337
grand-santi,4.25,-54.3833,72.23,97,66,2.19,GF,1612075337
ostrovnoy,68.0531,39.5131,16.32,95,91,9.82,RU,1612075338
lao cai,22.4833,103.95,66.31,73,100,2.84,VN,1612075338
rock springs,41.5875,-109.2029,19.4,79,1,13.8,US,1612075174
ulladulla,-35.35,150.4667,68.0,94,90,2.3,AU,1612075339
ofaqim,31.3141,34.6203,60.01,53,0,1.99,IL,1612075339
east london,-33.0153,27.9116,71.6,88,90,3.44,ZA,1612075291
amapa,1.0,-52.0,70.56,98,46,1.36,BR,1612075339
mersing,2.4312,103.8405,84.2,79,40,10.36,MY,1612075339
abha,18.2164,42.5053,62.6,36,0,4.61,SA,1612075043
juneau,58.3019,-134.4197,30.0,95,0,6.33,US,1612075042
phalombe,-15.8064,35.6507,76.46,81,87,4.29,MW,1612075341
kloulklubed,7.0419,134.2556,86.0,66,75,11.5,PW,1612075342
avon lake,41.5053,-82.0282,30.99,64,90,8.05,US,1612075342
nome,64.5011,-165.4064,-14.01,76,1,5.75,US,1612075342
novospasskoye,53.1468,47.7514,24.87,94,100,12.75,RU,1612075342
miyako,39.6367,141.9525,31.37,84,0,8.01,JP,1612075343
carbonia,39.1672,8.5222,52.0,82,40,6.91,IT,1612075343
kruisfontein,-34.0033,24.7314,75.0,64,0,1.99,ZA,1612075343
kieta,-6.2167,155.6333,83.01,70,99,14.5,PG,1612075343
pizhanka,57.4604,48.542,23.34,97,100,16.42,RU,1612075343
bundaberg,-24.85,152.35,86.0,48,0,17.27,AU,1612075343
chernyshevsk,52.5243,117.0174,-16.76,84,69,4.23,RU,1612075344
katherine,-14.4667,132.2667,93.2,49,75,12.66,AU,1612075344
chuy,-33.6971,-53.4616,69.22,87,100,14.27,UY,1612075344
henties bay,-22.116,14.2845,68.0,81,100,2.13,NA,1612075344
dutlwe,-23.9833,23.9,78.49,57,13,12.88,BW,1612075345
severnyy,50.677,36.5532,35.6,100,90,11.18,RU,1612075345
burns lake,54.2331,-125.7533,17.6,93,100,3.44,CA,1612075331
bangalore,12.9762,77.6033,81.0,36,0,6.91,IN,1612075345
mehamn,71.0357,27.8492,25.09,96,100,18.75,NO,1612075345
amarante do maranhao,-5.5667,-46.7422,69.73,96,100,1.54,BR,1612075345
port augusta,-32.5,137.7667,80.6,36,93,14.97,AU,1612075346
nuuk,64.1835,-51.7216,15.8,79,0,12.66,GL,1612075280
prince rupert,54.3161,-130.3201,41.0,75,90,4.61,CA,1612075346
wasilla,61.5814,-149.4394,15.8,85,1,1.1,US,1612075346
atambua,-9.1061,124.8925,78.04,84,100,9.1,ID,1612075346
iranshahr,27.2025,60.6848,71.46,33,0,3.44,IR,1612075347
eureka,40.8021,-124.1637,54.0,82,90,8.05,US,1612075080
anzio,41.4853,12.6179,55.99,66,47,8.99,IT,1612075347
balkhash,46.844,74.9804,17.6,73,0,17.9,KZ,1612075347
palmer,42.1584,-72.3287,9.0,61,1,3.36,US,1612075347
portland,45.5234,-122.6762,46.99,81,90,13.8,US,1612075042
ouesso,1.6136,16.0517,76.64,80,58,3.62,CG,1612075348
jieshi,22.8134,115.8257,73.99,56,0,15.7,CN,1612075348
lima,-12.0432,-77.0282,72.0,83,0,11.5,PE,1612075196
sosnovo-ozerskoye,52.5249,111.5418,-9.71,87,78,11.21,RU,1612075348
lubango,-14.9172,13.4925,67.8,67,65,2.44,AO,1612075348
maracacume,-2.0428,-45.9592,72.32,98,13,2.33,BR,1612075348
kati,12.7441,-8.0726,60.8,36,0,3.44,ML,1612075349
high rock,26.6208,-78.2833,66.2,68,20,10.36,BS,1612075349
bambanglipuro,-7.95,110.2833,85.44,66,94,7.87,ID,1612075064
trincomalee,8.5711,81.2335,79.92,84,7,15.84,LK,1612075350
jiazi,22.8779,116.067,68.41,59,0,13.94,CN,1612075350
menongue,-14.6585,17.691,68.63,84,100,7.81,AO,1612075350
szydlowiec,51.2282,20.8611,21.99,86,2,6.13,PL,1612075351
elat,29.5581,34.9482,65.79,28,0,0.94,IL,1612075351
mwingi,-0.9344,38.0601,73.47,67,87,4.16,KE,1612075351
heihe,50.2441,127.4902,-18.4,63,0,2.24,CN,1612075351
tessalit,20.1986,1.0114,58.64,27,0,7.14,ML,1612075351
bandarbeyla,9.4942,50.8122,77.13,59,52,16.62,SO,1612075351
honningsvag,70.9821,25.9704,27.63,95,100,21.39,NO,1612075352
samora correia,38.9371,-8.8718,57.99,88,20,11.5,PT,1612075352
gallup,35.5281,-108.7426,23.0,86,1,2.13,US,1612075352
yumen,40.2833,97.2,36.28,52,0,30.91,CN,1612075097
chimbarongo,-34.7,-71.05,62.01,100,90,6.91,CL,1612075352
hit,33.6416,42.8251,55.58,49,64,15.48,IQ,1612075353
limbang,4.75,115.0,87.8,62,75,8.05,MY,1612075353
sao joao da barra,-21.6403,-41.0511,75.15,83,37,17.02,BR,1612075353
olafsvik,64.8945,-23.7142,22.59,87,69,12.44,IS,1612075353
meulaboh,4.1363,96.1285,85.3,64,14,7.16,ID,1612075353
bucerias,20.75,-105.3333,68.0,86,0,6.38,MX,1612075353
tinskoy,56.1525,96.9161,-21.95,81,34,1.3,RU,1612075354
morehead,37.2711,-87.1764,43.0,87,90,9.22,US,1612075354
stolin,51.8912,26.846,18.12,97,9,8.37,BY,1612075354
zavetnoye,47.1194,43.8903,34.83,88,100,14.94,RU,1612075354
waynesboro,38.0685,-78.8895,30.0,100,90,2.91,US,1612075355
kununurra,-15.7667,128.7333,89.6,74,75,11.5,AU,1612075355
maasim,5.8575,125.0061,86.0,58,75,10.36,PH,1612075356
kribi,2.95,9.9167,79.61,83,98,1.77,CM,1612075356
tezpur,26.6333,92.8,75.34,35,0,3.42,IN,1612075356
imeni poliny osipenko,52.4201,136.4853,-11.11,89,85,7.31,RU,1612075356
pringsewu,-5.3582,104.9744,84.27,73,98,3.18,ID,1612075356
durango,24.8333,-104.8333,50.27,56,0,4.83,MX,1612075213
inirida,3.8653,-67.9239,75.88,76,96,2.35,CO,1612075356
san cristobal,7.7669,-72.225,63.32,71,36,2.39,VE,1612075357
mayo,38.8876,-76.5119,32.0,59,1,5.84,US,1612075357
guamuchil,25.4667,-108.1,59.0,84,51,4.0,MX,1612075357
westport,41.1415,-73.3579,19.4,58,1,6.91,US,1612075357
banjar,-8.19,114.9675,87.8,70,20,14.97,ID,1612075357
vaitape,-16.5167,-151.75,82.4,71,100,10.56,PF,1612075358
sangin,32.0728,64.8359,63.03,25,0,5.86,AF,1612075358
devrek,41.2192,31.9558,46.76,73,97,4.47,TR,1612075358
saint-georges,12.0564,-61.7485,78.8,83,20,17.27,GD,1612075076
kango,0.1943,10.0951,76.14,92,84,2.28,GA,1612075359
humberto de campos,-2.5983,-43.4611,75.09,94,98,4.72,BR,1612075359
san carlos,9.6612,-68.5827,72.12,75,12,2.13,VE,1612075360
los llanos de aridane,28.6585,-17.9182,62.6,88,90,10.36,ES,1612075292
fasa,28.9383,53.6482,53.91,48,0,4.07,IR,1612075360
lagoa,39.05,-27.9833,61.61,96,26,21.43,PT,1612075360
galbshtadt,53.2264,78.9845,6.84,94,100,10.76,RU,1612075360
evensk,61.95,159.2333,-1.95,89,100,30.27,RU,1612075361
havoysund,70.9963,24.6622,24.8,93,75,10.36,NO,1612075361
viedma,-40.8135,-62.9967,56.25,68,0,6.06,AR,1612075361
bandar,2.05,99.75,86.88,58,100,3.58,ID,1612075362
kalaswala,32.2009,74.6491,60.8,67,0,3.18,PK,1612075362
saint-augustin,51.226,-58.6502,25.88,92,100,15.75,CA,1612075063
belleville,44.1788,-77.3705,3.99,78,1,6.91,CA,1612075182
kazachinskoye,57.6953,93.2761,-24.3,81,59,4.05,RU,1612075362
tahoua,14.8888,5.2692,60.8,23,0,4.61,NE,1612075363
iqaluit,63.7506,-68.5145,-11.2,70,1,7.94,CA,1612075363
koshurnikovo,54.1667,93.3,-7.51,88,23,2.33,RU,1612075363
morgan city,29.6994,-91.2068,66.99,94,90,13.8,US,1612075363
akureyri,65.6835,-18.0878,17.6,73,90,8.05,IS,1612075363
ornskoldsvik,63.2909,18.7153,12.2,92,90,6.91,SE,1612075271
vestmannaeyjar,63.4427,-20.2734,30.78,92,100,16.31,IS,1612075364
namatanai,-3.6667,152.4333,83.46,63,100,8.19,PG,1612075364
srednekolymsk,67.45,153.6833,-37.17,83,100,6.38,RU,1612075365
tabou,4.423,-7.3528,77.59,90,9,5.95,CI,1612075365
izazi,-7.2,35.7333,81.14,58,18,2.06,TZ,1612075365
high level,58.5169,-117.136,-9.4,84,1,2.3,CA,1612075365
erzin,36.9559,36.2,46.99,97,60,7.0,TR,1612075365
tura,25.5198,90.2201,72.52,25,0,4.14,IN,1612075366
tautira,-17.7333,-149.15,80.6,74,75,14.97,PF,1612075366
mayor pablo lagerenza,-19.9309,-60.7718,79.63,67,100,8.19,PY,1612075366
qiongshan,20.0058,110.3542,75.2,64,75,15.66,CN,1612075366
kintinku,-5.8833,35.2333,75.72,70,100,3.38,TZ,1612075366
zhuzhou,27.8333,113.15,51.8,82,40,4.47,CN,1612075367
broken hill,-31.95,141.4333,87.8,23,28,13.8,AU,1612075367
kyshtovka,56.555,76.6271,-0.63,92,98,10.63,RU,1612075367
majene,-3.5403,118.9707,86.83,57,100,11.77,ID,1612075367
lakatoro,-16.0999,167.4164,81.75,71,8,11.27,VU,1612075367
huandacareo,19.9833,-101.2833,57.2,54,1,2.98,MX,1612075368
zorgo,12.2489,-0.6158,67.39,22,87,11.12,BF,1612075368
krasnyy chikoy,50.3643,108.7512,-12.46,82,100,9.33,RU,1612075369
bretzfeld,49.1794,9.4383,35.01,86,90,10.36,DE,1612075369
dingle,10.9995,122.6711,81.32,72,100,16.8,PH,1612075370
rawson,-43.3002,-65.1023,61.25,62,96,14.07,AR,1612075370
wladyslawowo,54.7909,18.4009,32.0,86,75,13.8,PL,1612075370
thinadhoo,0.5333,72.9333,82.29,76,95,14.27,MV,1612075370
ginda,30.6945,78.4932,59.11,27,0,6.38,IN,1612075370
auki,-8.7676,160.7034,81.34,81,100,13.15,SB,1612075371
mezen,65.8522,44.24,15.84,97,100,4.79,RU,1612075371
ghanzi,-21.5667,21.7833,75.87,69,80,8.19,BW,1612075371
riberalta,-10.9833,-66.1,73.17,96,100,2.44,BO,1612075371
dolores,-36.3132,-57.6792,53.04,81,0,9.57,AR,1612075371
tonk,26.1667,75.7833,73.96,19,0,5.08,IN,1612075371
turbat,26.0023,63.044,74.73,37,0,6.24,PK,1612075372
tazovskiy,67.4667,78.7,-21.35,87,100,19.06,RU,1612075372
nekhayevskiy,50.4106,41.7561,34.0,87,100,5.01,RU,1612075372
xiamen,24.4798,118.0819,73.4,43,0,4.47,CN,1612075372
mega,4.05,38.3,70.84,26,81,20.09,ET,1612075372
zhicheng,30.2956,111.5047,50.0,93,100,4.43,CN,1612075373
gadung,6.8025,124.02,85.6,63,98,2.91,PH,1612075373
corinth,37.9407,22.9573,51.01,46,93,1.99,GR,1612075373
kitimat,54.0524,-128.6534,27.0,79,100,5.79,CA,1612075373
mawlaik,23.6333,94.4167,85.75,24,0,1.83,MM,1612075374
dawlatabad,36.4141,64.9053,57.56,60,100,1.63,AF,1612075374
mizdah,31.4451,12.9801,54.82,37,73,14.0,LY,1612075374
udachnyy,66.4167,112.4,-29.9,81,100,12.66,RU,1612075374
qarchi gak,37.04,66.7889,53.6,35,75,4.61,AF,1612075374
walvis bay,-22.9575,14.5053,68.0,77,96,10.36,NA,1612075374
nhulunbuy,-12.2333,136.7667,91.4,58,40,8.05,AU,1612075375
korla,41.7597,86.1469,32.79,72,0,10.22,CN,1612075375
port macquarie,-31.4333,152.9167,79.0,78,100,8.01,AU,1612075375
roald,62.5833,6.1333,32.0,93,90,6.91,NO,1612075375
kontagora,10.3999,5.4695,70.57,21,0,5.77,NG,1612075375
alofi,-19.0595,-169.9187,78.8,83,100,5.75,NU,1612075376
husavik,66.0449,-17.3389,17.6,73,90,8.05,IS,1612075376
bulata,9.8599,122.4016,82.24,71,100,24.05,PH,1612075376
trastenik,43.52,24.4685,39.2,75,75,2.3,BG,1612075376
homer,59.6425,-151.5483,21.2,73,1,5.75,US,1612075376
ramanuj ganj,23.8,83.7,74.37,18,0,8.77,IN,1612075377
sembe,1.6481,14.5806,74.41,85,93,4.59,CG,1612075377
ossora,59.2353,163.0719,0.3,91,100,22.1,RU,1612075377
astana,51.1801,71.446,19.4,68,0,6.71,KZ,1612075378
port arthur,38.8,121.2667,44.6,76,75,8.95,CN,1612075379
litovko,49.2361,135.1742,-6.12,82,1,13.71,RU,1612075379
broome,42.2506,-75.833,10.4,85,40,2.1,US,1612075379
batemans bay,-35.7167,150.1833,69.01,80,100,1.01,AU,1612075379
egvekinot,66.3167,-179.1667,-18.76,85,100,13.29,RU,1612075379
itai,-23.4178,-49.0906,68.81,89,97,0.98,BR,1612075379
thayetmyo,19.3167,95.1833,93.99,15,79,5.61,MM,1612075380
garowe,8.4054,48.4845,73.54,56,27,12.17,SO,1612075380
hereford,52.0568,-2.7148,30.99,88,100,5.12,GB,1612075277
haines junction,60.7522,-137.5108,-18.4,76,91,1.14,CA,1612075380
santa fe,-31.6333,-60.7,66.0,89,0,5.01,AR,1612075200
ambikapur,23.1167,83.2,71.92,20,0,7.92,IN,1612075380
saint anthony,45.0205,-93.218,30.2,80,90,5.75,US,1612075380
coari,-4.085,-63.1414,72.75,97,52,2.71,BR,1612075381
belmonte,-15.8631,-38.8828,73.4,94,75,3.44,BR,1612075381
kargasok,59.0556,80.8572,-16.76,86,99,13.42,RU,1612075381
camacha,33.0833,-16.3333,57.2,88,0,11.5,PT,1612075381
tabriz,38.08,46.2919,30.97,91,60,3.94,IR,1612075120
mareeba,-17.0,145.4333,82.0,83,90,10.36,AU,1612075382
shingu,33.7333,135.9833,53.6,40,20,12.66,JP,1612075382
christchurch,-43.5333,172.6333,62.6,72,0,23.02,NZ,1612075229
general roca,-39.0333,-67.5833,62.6,72,75,5.75,AR,1612075382
umm kaddadah,13.6017,26.6876,67.05,23,0,17.47,SD,1612075382
aklavik,68.2191,-135.0107,-27.4,68,100,2.3,CA,1612075383
luena,-11.7833,19.9167,65.34,92,100,8.95,AO,1612075383
hukeri,16.2333,74.6,78.8,38,0,6.91,IN,1612075383
verkhnyaya toyma,62.2349,44.9985,17.74,96,100,8.39,RU,1612075383
grand forks,47.9417,-97.4337,23.0,100,90,5.75,US,1612075383
sampit,-2.5333,112.95,90.63,54,100,2.84,ID,1612075384
yatou,37.15,122.3833,47.75,61,0,15.77,CN,1612075384
